{
  "message": {
    "recent_leads": [
      {
        "name": "John Doe",
        "location": "Kimara Temboni",
        "phoneNumber": "0685449190",
        "level": "1"
      },
      {
        "name": "Asha Hassan",
        "location": "Mikocheni",
        "phoneNumber": "0712345678",
        "level": "2"
      },
      {
        "name": "Peter Mushi",
        "location": "Sinza",
        "phoneNumber": "0756784321",
        "level": "3"
      },
      {
        "name": "Neema Joseph",
        "location": "Kariakoo",
        "phoneNumber": "0685999123",
        "level": "1"
      },
      {
        "name": "David John",
        "location": "Tabata",
        "phoneNumber": "0743210987",
        "level": "2"
      },
      {
        "name": "Zainabu Ramadhani",
        "location": "Temeke",
        "phoneNumber": "0765432109",
        "level": "3"
      },
      {
        "name": "Moses Mwakyusa",
        "location": "Kunduchi",
        "phoneNumber": "0789123456",
        "level": "1"
      },
      {
        "name": "Fatma Said",
        "location": "Tegeta",
        "phoneNumber": "0654321987",
        "level": "2"
      },
      {
        "name": "Kelvin Paul",
        "location": "Ubungo",
        "phoneNumber": "0734567890",
        "level": "3"
      },
      {
        "name": "Maria Jonas",
        "location": "Magomeni",
        "phoneNumber": "0678123456",
        "level": "3"
      }
    ]
  }
}
